City_ID,City,Lat,Lng,Max Temp,Humidity,Cloudiness,Wind Speed,Country,Date
0,muros,42.7762,-9.0603,3.8,83,20,5.6,ES,1675926258
1,ushuaia,-54.8,-68.3,8.81,93,0,4.12,AR,1675926258
2,norman wells,65.282,-126.8329,-23.98,70,100,1.03,CA,1675926259
3,albany,42.6001,-73.9662,0.45,83,99,0.45,US,1675925997
4,mackay,-21.15,149.2,28.71,74,95,10.49,AU,1675926154
5,iberia,29.9502,-91.7507,16.04,77,100,7.2,US,1675926260
6,hobart,-42.8794,147.3294,20.7,60,75,4.12,AU,1675926040
7,lieksa,63.3167,30.0167,0.94,83,100,9.76,FI,1675926261
8,butaritari,3.0707,172.7902,27.47,83,100,8.77,KI,1675926261
9,oktyabrskiy,54.4815,53.471,-8.16,97,99,1.6,RU,1675926262
10,hamilton,39.1834,-84.5333,11.66,94,100,2.57,US,1675925951
11,puerto ayora,-0.7393,-90.3518,25.31,94,100,0.45,EC,1675926262
12,pocone,-16.2567,-56.6228,22.92,87,100,1.31,BR,1675926263
13,olafsvik,64.8945,-23.7142,-4.84,57,98,4.43,IS,1675926263
14,pangnirtung,66.1451,-65.7125,-31.28,74,7,2.51,CA,1675926264
15,mahebourg,-20.4081,57.7,29.16,70,75,6.69,MU,1675926264
16,clyde river,70.4692,-68.5914,-35.87,68,75,3.6,CA,1675926265
17,kruisfontein,-34.0033,24.7314,17.71,74,100,2.0,ZA,1675926265
18,saldanha,-33.0117,17.9442,20.49,70,0,4.04,ZA,1675926266
19,port-gentil,-0.7193,8.7815,26.98,94,40,1.54,GA,1675926268
20,mount gambier,-37.8333,140.7667,23.43,42,0,3.67,AU,1675926269
21,gwadar,25.1216,62.3254,23.56,72,0,2.18,PK,1675926270
22,cherskiy,68.75,161.3,-37.3,99,100,3.05,RU,1675926271
23,atuona,-9.8,-139.0333,26.14,79,20,9.39,PF,1675926271
24,rikitea,-23.1203,-134.9692,26.91,72,0,7.29,PF,1675926271
25,port alfred,-33.5906,26.891,21.21,98,100,2.06,ZA,1675926272
26,barcelos,41.5388,-8.6151,8.8,76,0,3.13,PT,1675926273
27,punta arenas,-53.15,-70.9167,8.06,71,20,6.17,CL,1675926215
28,tasiilaq,65.6145,-37.6368,-11.91,58,100,3.45,GL,1675926273
29,bluff,-46.6,168.3333,12.67,56,35,6.83,NZ,1675926274
30,stornoway,58.2093,-6.3865,4.98,79,75,9.26,GB,1675926275
31,reconquista,-29.15,-59.65,22.62,74,100,2.89,AR,1675926275
32,klaksvik,62.2266,-6.589,-0.49,65,100,20.22,FO,1675926276
33,saskylakh,71.9167,114.0833,-42.35,98,47,2.89,RU,1675926276
34,torbay,47.6666,-52.7314,-1.9,92,100,6.69,CA,1675926201
35,tautira,-17.7333,-149.15,27.03,71,1,3.14,PF,1675925793
36,opuwo,-18.0607,13.84,22.2,29,11,1.14,NA,1675926277
37,lucapa,-8.4192,20.7447,21.17,80,92,0.86,AO,1675926278
38,belomorsk,64.5232,34.7668,1.65,86,100,8.12,RU,1675926278
39,rubtsovsk,51.5,81.25,-15.38,94,100,4.19,RU,1675926279
40,castro,-24.7911,-50.0119,15.04,97,8,1.69,BR,1675926280
41,caravelas,-17.7125,-39.2481,23.32,90,100,2.14,BR,1675925795
42,kushmurun,52.4503,64.6311,-13.63,94,100,3.21,KZ,1675926280
43,kismayo,-0.3582,42.5454,27.81,67,0,6.43,SO,1675926281
44,teahupoo,-17.8333,-149.2667,23.98,73,3,3.38,PF,1675926282
45,yulara,-25.2406,130.9889,40.41,9,6,6.21,AU,1675925560
46,aklavik,68.2191,-135.0107,-35.08,99,73,2.21,CA,1675925702
47,barzas,55.7167,86.3167,-13.27,87,100,1.11,RU,1675926283
48,muzhi,65.3667,64.6667,-4.54,80,8,9.51,RU,1675926283
49,carnarvon,-24.8667,113.6333,29.64,59,8,8.59,AU,1675926284
50,naze,28.3667,129.4833,17.51,74,100,8.56,JP,1675925780
51,mabaruma,8.2,-59.7833,21.38,99,100,0.96,GY,1675926200
52,maniitsoq,65.4167,-52.9,-4.79,96,100,0.99,GL,1675926284
53,santa maria,-29.6842,-53.8069,22.3,60,100,2.32,BR,1675925699
54,saint-philippe,-21.3585,55.7679,29.77,81,48,5.66,RE,1675926285
55,acapulco,16.8634,-99.8901,24.19,65,1,1.78,MX,1675926029
56,huilong,31.8111,121.655,7.18,93,100,5.99,CN,1675926286
57,okoneshnikovo,54.8377,75.0834,-19.21,96,99,2.76,RU,1675926286
58,talnakh,69.4865,88.3972,-21.62,94,100,4.07,RU,1675925742
59,moose factory,51.2585,-80.6094,-17.01,92,0,2.57,CA,1675925697
60,barrow,71.2906,-156.7887,-20.99,77,100,2.57,US,1675926287
61,salinas,36.6777,-121.6555,12.81,78,0,2.57,US,1675925649
62,smithers,54.7804,-127.1743,-0.82,93,100,3.6,CA,1675926288
63,emerald,-23.5333,148.1667,32.5,33,77,9.16,AU,1675926144
64,kagadi,0.9606,30.7967,27.83,29,21,0.61,UG,1675926288
65,dikson,73.5069,80.5464,-18.91,82,23,7.08,RU,1675926289
66,kieta,-6.2167,155.6333,28.0,78,100,2.49,PG,1675925742
67,xuanhua,40.6103,115.0447,-1.4,78,100,3.44,CN,1675926289
68,vaini,-21.2,-175.2,26.09,94,40,2.06,TO,1675926290
69,san juan,-31.5375,-68.5364,27.11,43,7,2.21,AR,1675926290
70,rio grande,-32.035,-52.0986,24.27,66,100,5.71,BR,1675925754
71,mataura,-46.1927,168.8643,12.49,60,45,2.71,NZ,1675926291
72,inuvik,68.3499,-133.7218,-26.44,76,100,1.03,CA,1675926292
73,meridian,43.6121,-116.3915,1.13,74,0,0.89,US,1675926033
74,bredasdorp,-34.5322,20.0403,22.77,62,9,6.12,ZA,1675926292
75,itoman,26.1247,127.6694,23.01,70,75,5.66,JP,1675926293
76,jamestown,42.097,-79.2353,2.8,82,40,2.06,US,1675926105
77,east london,-33.0153,27.9116,20.02,91,100,1.07,ZA,1675926036
78,busselton,-33.65,115.3333,28.88,42,0,4.22,AU,1675926294
79,los llanos de aridane,28.6585,-17.9182,12.86,71,100,3.13,ES,1675926294
80,kungurtug,50.5994,97.5228,-8.0,76,100,0.62,RU,1675926294
81,ciudad bolivar,8.1222,-63.5497,23.29,80,13,4.59,VE,1675926295
82,kapaa,22.0752,-159.319,24.18,72,40,9.26,US,1675926295
83,katsuura,35.1333,140.3,9.75,33,87,3.68,JP,1675926296
84,cape town,-33.9258,18.4232,25.06,64,0,3.09,ZA,1675926235
85,morros,-9.4467,-46.3003,21.99,78,14,1.07,BR,1675926296
86,hermanus,-34.4187,19.2345,24.33,69,0,5.39,ZA,1675926297
87,buraydah,26.326,43.975,11.25,30,100,3.05,SA,1675926297
88,sola,-13.8833,167.55,29.37,79,75,0.0,VU,1675925745
89,hithadhoo,-0.6,73.0833,27.48,71,100,3.48,MV,1675926298
90,hun,29.1268,15.9477,11.85,69,0,6.89,LY,1675926298
91,pedra branca,-5.4542,-39.7172,18.92,84,74,0.42,BR,1675926299
92,flin flon,54.7682,-101.865,-21.75,100,23,2.2,CA,1675926299
93,along,28.1667,94.7667,22.92,38,62,1.66,IN,1675926300
94,camabatela,-8.1881,15.375,20.42,69,25,0.47,AO,1675926300
95,krasnoselkup,65.7,82.4667,-16.45,93,100,6.08,RU,1675926301
96,victoria,22.2855,114.1577,23.86,77,93,4.47,HK,1675926148
97,nikolskoye,59.7035,30.7861,0.94,85,100,5.4,RU,1675926302
98,shimoda,34.6667,138.95,11.2,56,68,5.02,JP,1675926302
99,fortuna,40.5982,-124.1573,5.19,97,75,3.09,US,1675926303
100,taikang,46.8333,124.4167,-7.88,74,100,2.71,CN,1675926303
101,geraldton,-28.7667,114.6,30.23,45,8,8.75,AU,1675926158
102,merke,42.8728,73.1786,2.54,91,100,3.75,KZ,1675926027
103,debre birhan,9.6833,39.5333,14.4,37,6,2.4,ET,1675926304
104,thompson,55.7435,-97.8558,-14.91,78,100,3.09,CA,1675926297
105,mitu,1.1983,-70.1733,21.41,98,100,0.24,CO,1675926306
106,ancud,-41.8697,-73.8203,14.55,96,34,3.44,CL,1675926306
107,kralendijk,12.15,-68.2667,25.99,78,20,7.72,BQ,1675925759
108,bairiki,1.3292,172.9752,27.0,89,75,4.12,KI,1675926307
109,tiznit,29.5833,-9.5,8.69,56,82,2.26,MA,1675926308
110,yellowknife,62.456,-114.3525,-21.36,84,75,4.63,CA,1675926091
111,altay,47.8667,88.1167,-1.83,72,100,1.07,CN,1675926309
112,cabo san lucas,22.8909,-109.9124,19.17,40,100,2.23,MX,1675926291
113,razole,16.4833,81.8333,31.58,40,89,2.22,IN,1675926310
114,esperance,-33.8667,121.9,20.6,65,40,5.56,AU,1675926310
115,isangel,-19.55,169.2667,27.06,89,100,3.09,VU,1675926311
116,vila,42.0304,-8.1588,1.49,84,0,1.99,PT,1675926312
117,pacifica,37.6138,-122.4869,13.21,76,0,1.79,US,1675926169
118,namatanai,-3.6667,152.4333,28.5,70,100,2.81,PG,1675926313
119,tiksi,71.6872,128.8694,-39.74,99,64,2.2,RU,1675926313
120,beringovskiy,63.05,179.3167,-33.07,94,30,2.26,RU,1675926314
121,valdivia,-39.8142,-73.2459,10.05,97,22,0.36,CL,1675926314
122,arraial do cabo,-22.9661,-42.0278,22.92,94,0,3.09,BR,1675926314
123,miraflores,19.2167,-98.8083,14.93,61,98,0.97,MX,1675926015
124,kodiak,57.79,-152.4072,-6.27,45,0,3.6,US,1675926315
125,coquimbo,-29.9533,-71.3436,17.85,88,100,1.03,CL,1675926295
126,luderitz,-26.6481,15.1594,19.72,79,10,3.49,NA,1675926316
127,umm kaddadah,13.6017,26.6876,18.75,14,10,9.56,SD,1675925730
128,chuy,-33.6971,-53.4616,21.42,92,92,0.5,UY,1675926317
129,banos,-1.4,-78.4167,16.17,90,80,0.15,EC,1675926318
130,avarua,-21.2078,-159.775,26.03,78,100,1.54,CK,1675926318
131,murchison,-41.8,172.3333,16.2,58,5,1.07,NZ,1675926320
132,sao filipe,14.8961,-24.4956,20.09,79,34,4.3,CV,1675925751
133,qaqortoq,60.7167,-46.0333,-5.43,81,100,4.17,GL,1675926320
134,saint george,37.1041,-113.5841,9.33,39,0,5.81,US,1675926321
135,hilo,19.7297,-155.09,21.27,84,75,3.6,US,1675926243
136,sitka,57.0531,-135.33,4.94,60,100,9.77,US,1675926322
137,new norfolk,-42.7826,147.0587,20.5,49,100,0.89,AU,1675926322
138,karratha,-20.7377,116.8463,34.13,51,0,6.45,AU,1675926323
139,lorengau,-2.0226,147.2712,27.44,78,100,3.93,PG,1675926089
140,balkanabat,39.5108,54.3671,4.12,95,100,4.65,TM,1675926324
141,myanaung,18.2833,95.3167,34.13,13,100,1.05,MM,1675926324
142,ribeira grande,38.5167,-28.7,12.65,81,47,3.13,PT,1675926325
143,vao,-22.6667,167.4833,26.52,81,100,8.48,NC,1675926325
144,faya,18.3851,42.4509,19.29,40,29,0.62,SA,1675926326
145,faanui,-16.4833,-151.75,27.03,74,20,3.98,PF,1675926327
146,cozumel,20.5083,-86.9458,22.75,93,0,5.8,MX,1675926290
147,bambous virieux,-20.3428,57.7575,29.14,70,75,6.69,MU,1675926327
148,upernavik,72.7868,-56.1549,-35.15,98,37,4.09,GL,1675926123
149,tuatapere,-46.1333,167.6833,12.45,62,65,3.29,NZ,1675925775
150,longyearbyen,78.2186,15.6401,-7.09,73,75,4.12,SJ,1675926194
151,pierre,44.3683,-100.351,1.82,78,100,3.58,US,1675926079
152,potosi,-19.5836,-65.7531,4.78,96,100,3.75,BO,1675926329
153,pudozh,61.8099,36.5345,0.72,89,100,6.04,RU,1675926330
154,ajtos,42.7,27.25,-4.32,77,98,4.89,BG,1675926330
155,cidreira,-30.1811,-50.2056,24.06,89,18,7.94,BR,1675926331
156,sunrise manor,36.2111,-115.0731,14.62,36,0,3.09,US,1675926333
157,acarau,-2.8856,-40.12,24.58,84,31,3.99,BR,1675926333
158,port elizabeth,-33.918,25.5701,21.16,98,100,2.06,ZA,1675926334
159,bambanglipuro,-7.95,110.2833,28.37,74,90,5.67,ID,1675926335
160,christchurch,-43.5333,172.6333,16.11,61,100,6.17,NZ,1675926092
161,pereira barreto,-20.6383,-51.1092,21.83,92,7,1.96,BR,1675926330
162,fare,-16.7,-151.0167,27.36,71,10,4.11,PF,1675926336
163,lebu,-37.6167,-73.65,13.92,94,1,4.27,CL,1675926336
164,avera,33.194,-82.5271,14.1,84,49,3.45,US,1675926337
165,mandalgovi,45.7625,106.2708,-5.88,57,9,4.74,MN,1675926337
166,maralal,1.0968,36.698,21.32,38,7,3.33,KE,1675926337
167,kaili,-3.4626,120.2147,23.28,86,100,0.82,ID,1675926338
168,whitianga,-36.8333,175.7,18.2,64,1,4.91,NZ,1675926338
169,key west,24.5557,-81.7826,28.0,69,20,7.72,US,1675926335
170,hoi an,15.8794,108.335,27.98,82,100,4.74,VN,1675926339
171,namikupa,-10.8333,39.6,26.13,83,100,2.87,TZ,1675926339
172,inta,66.0317,60.1659,-3.53,96,100,8.21,RU,1675926340
173,ghanzi,-21.5667,21.7833,22.42,72,98,2.62,BW,1675926340
174,pevek,69.7008,170.3133,-33.68,100,100,2.98,RU,1675926341
175,qaanaaq,77.484,-69.3632,-31.54,64,0,2.69,GL,1675926342
176,grand gaube,-20.0064,57.6608,29.22,76,15,4.47,MU,1675926342
177,oranjemund,-28.55,16.4333,19.75,83,21,2.08,NA,1675926342
178,betioky,-23.7167,44.3833,27.84,56,100,4.72,MG,1675926343
179,manokwari,-0.8667,134.0833,26.66,76,100,2.32,ID,1675926343
180,bardiyah,31.7561,25.0865,12.31,66,100,8.8,LY,1675926344
181,baykit,61.67,96.37,-13.82,90,100,1.2,RU,1675926344
182,chokurdakh,70.6333,147.9167,-31.63,97,100,2.0,RU,1675926345
183,thohoyandou,-22.9456,30.485,22.32,85,82,1.37,ZA,1675926345
184,lavrentiya,65.5833,-171.0,-25.79,97,100,1.3,RU,1675926346
185,dunedin,-45.8742,170.5036,13.93,54,44,7.09,NZ,1675926132
186,artigas,-30.4,-56.4667,23.35,59,100,4.28,UY,1675926346
187,guerrero negro,27.9769,-114.0611,14.85,56,6,2.15,MX,1675926347
188,half moon bay,37.4636,-122.4286,12.79,76,0,1.54,US,1675926347
189,mar del plata,-38.0023,-57.5575,18.38,97,0,1.54,AR,1675926333
190,severo-kurilsk,50.6789,156.125,-5.3,52,81,9.72,RU,1675926348
191,nouadhibou,20.931,-17.0347,16.79,71,100,3.56,MR,1675926348
192,zhengjiatun,43.5064,123.5064,-1.52,33,100,3.51,CN,1675926325
193,vila velha,-20.3297,-40.2925,22.97,96,20,2.06,BR,1675926349
194,cabadiangan,9.7531,122.4739,28.8,70,100,5.45,PH,1675926349
195,kavieng,-2.5744,150.7967,28.44,70,100,1.25,PG,1675926350
196,rangapara,26.8167,92.65,19.63,55,99,3.25,IN,1675926350
197,rawson,-43.3002,-65.1023,23.37,37,11,11.67,AR,1675925786
198,goderich,43.7501,-81.7165,1.18,80,100,2.57,CA,1675926351
199,lagoa,39.05,-27.9833,13.25,66,15,6.52,PT,1675926351
200,high prairie,55.4334,-116.4858,-8.0,86,61,2.03,CA,1675926304
201,poum,-20.2333,164.0167,27.6,80,100,6.19,NC,1675926352
202,samarai,-10.6167,150.6667,26.56,84,100,2.99,PG,1675926352
203,alofi,-19.0595,-169.9187,26.94,83,100,1.03,NU,1675926353
204,fairbanks,64.8378,-147.7164,-17.73,82,0,0.0,US,1675926353
205,almaznyy,48.0448,40.045,-8.74,83,41,3.22,RU,1675926354
206,ahipara,-35.1667,173.1667,18.6,69,1,4.01,NZ,1675926354
207,bustamante,26.5333,-100.5,12.03,66,0,2.6,MX,1675926355
208,ballina,-28.8667,153.5667,25.01,72,100,4.61,AU,1675925758
209,berbera,10.4396,45.0143,26.24,62,5,2.12,SO,1675926355
210,invermere,50.5167,-116.0354,-11.89,95,91,0.46,CA,1675926356
211,wellington,-41.2866,174.7756,18.92,66,17,5.14,NZ,1675926299
212,mayo,38.8876,-76.5119,8.81,79,0,1.54,US,1675926357
213,suicheng,33.8963,117.9331,4.1,96,100,4.15,CN,1675926357
214,talcahuano,-36.7167,-73.1167,13.82,94,0,1.54,CL,1675926315
215,muravlenko,63.7898,74.523,-12.07,95,100,6.75,RU,1675926358
216,tateyama,34.9833,139.8667,9.94,36,22,5.15,JP,1675926358
217,tuktoyaktuk,69.4541,-133.0374,-36.0,68,20,1.03,CA,1675926359
218,viedma,-40.8135,-62.9967,17.78,69,8,4.31,AR,1675926359
219,khasan,42.4308,130.6434,-3.07,53,100,3.42,RU,1675926359
220,yar-sale,66.8333,70.8333,-15.34,97,78,4.16,RU,1675926360
221,banda aceh,5.5577,95.3222,29.44,68,59,3.79,ID,1675926360
222,vestmannaeyjar,63.4427,-20.2734,-2.21,62,94,11.57,IS,1675926196
223,meulaboh,4.1363,96.1285,29.53,66,72,3.01,ID,1675926361
224,uaua,-9.8414,-39.4817,19.63,75,100,2.95,BR,1675926362
225,turukhansk,65.8167,87.9833,-20.25,93,99,4.42,RU,1675926362
226,marsa matruh,31.3525,27.2453,12.11,62,75,2.06,EG,1675926363
227,amapa,1.0,-52.0,21.52,100,100,0.89,BR,1675926363
228,mehamn,71.0357,27.8492,1.97,69,0,7.2,NO,1675926364
229,hammerfest,70.6634,23.6821,0.25,80,40,2.06,NO,1675926365
230,sao joao da barra,-21.6403,-41.0511,22.88,92,100,4.24,BR,1675926366
231,gamba,-2.65,10.0,26.6,85,44,2.72,GA,1675926366
232,kaitangata,-46.2817,169.8464,13.31,54,34,4.18,NZ,1675926367
233,malinovoye ozero,51.6753,79.7825,-13.43,89,98,2.82,RU,1675926367
234,felipe carrillo puerto,19.5833,-88.05,20.77,97,9,1.13,MX,1675926368
235,fukue,32.6881,128.8419,12.2,47,75,3.6,JP,1675926368
236,carsamba,41.1989,36.7219,5.39,75,75,2.57,TR,1675926190
237,lodwar,3.1191,35.5973,32.48,28,60,6.85,KE,1675926369
238,shenjiamen,29.9576,122.298,10.56,96,100,5.62,CN,1675926370
239,aksu,41.1231,80.2644,1.97,51,80,0.63,CN,1675926308
240,karasjok,69.4719,25.5112,-0.73,93,100,4.96,NO,1675926372
241,oskaloosa,41.2964,-92.6444,2.32,90,100,4.84,US,1675926372
242,luena,-11.7833,19.9167,19.61,79,85,2.04,AO,1675926373
243,cabedelo,-6.9811,-34.8339,24.37,83,93,4.19,BR,1675926374
244,nyurba,63.2842,118.3319,-33.63,96,66,1.53,RU,1675926374
245,novo oriente,-5.5344,-40.7742,20.28,71,71,0.45,BR,1675926246
246,ostersund,63.1792,14.6357,0.9,100,0,7.15,SE,1675926375
247,tieling,42.2931,123.8414,0.26,31,100,1.68,CN,1675926376
248,danilov,58.1908,40.1717,-4.34,94,100,2.17,RU,1675926376
249,cafelandia,-21.8025,-49.61,20.47,92,10,2.19,BR,1675926377
250,camacari,-12.6975,-38.3242,26.87,89,15,0.62,BR,1675926377
251,unity,52.4501,-109.1682,-12.64,95,5,2.67,CA,1675926378
252,xichang,27.8964,102.2634,18.32,30,14,1.7,CN,1675926378
253,batsfjord,70.6345,29.7185,0.96,86,75,2.57,NO,1675926195
254,ponta do sol,32.6667,-17.1,14.84,62,74,2.59,PT,1675926379
255,itarema,-2.9248,-39.9167,24.43,83,41,3.68,BR,1675926325
256,gat,31.61,34.7642,9.88,100,88,2.23,IL,1675926232
257,ilulissat,69.2167,-51.1,-20.99,65,40,0.0,GL,1675926381
258,mastic beach,40.7668,-72.8521,7.44,77,0,0.89,US,1675926382
259,saint-augustin,51.226,-58.6502,-16.27,75,7,8.74,CA,1675926382
260,hovd,48.0056,91.6419,-12.28,71,94,1.9,MN,1675926141
261,magan,39.9683,-3.931,6.4,76,30,2.44,ES,1675926383
262,sao caetano de odivelas,-0.75,-48.02,23.2,96,100,1.67,BR,1675926384
263,juigalpa,12.1063,-85.3645,22.62,89,53,5.87,NI,1675926385
264,qandala,11.472,49.8728,26.12,66,6,2.69,SO,1675926385
265,peque,7.0212,-75.9093,18.01,96,52,0.7,CO,1675926386
266,tessalit,20.1986,1.0114,17.9,22,37,4.49,ML,1675926387
267,challapata,-18.9,-66.7667,8.24,84,100,0.27,BO,1675926387
268,tehachapi,35.1322,-118.449,9.29,42,5,1.34,US,1675926388
269,hatillo,18.4863,-66.8254,24.25,92,33,1.34,PR,1675926389
270,maningrida,-12.0667,134.2667,28.94,79,100,5.62,AU,1675926389
271,mount darwin,-16.7725,31.5838,25.0,71,100,0.57,ZW,1675926390
272,chicama,-7.8447,-79.1469,19.3,81,83,1.58,PE,1675926391
273,gimli,50.6336,-96.9907,1.01,75,92,5.66,CA,1675926391
274,belmonte,-15.8631,-38.8828,24.03,80,7,1.92,BR,1675926392
275,port lincoln,-34.7333,135.8667,26.85,45,0,3.79,AU,1675926392
276,san andres,12.5847,-81.7006,27.01,74,40,5.14,CO,1675926393
277,kjopsvik,68.097,16.3742,1.93,89,100,6.73,NO,1675926393
278,iquique,-20.2208,-70.1431,21.02,82,14,1.27,CL,1675926394
279,astana,51.1801,71.446,-19.03,78,40,3.0,KZ,1675926394
280,ngunguru,-35.6167,174.5,19.21,62,45,4.45,NZ,1675926395
281,mezhdurechensk,53.6942,88.0603,-7.49,84,100,0.89,RU,1675926396
282,havelock,34.8791,-76.9013,14.4,100,0,0.0,US,1675926396
283,verkhnevilyuysk,63.4453,120.3167,-35.01,96,82,1.54,RU,1675926397
284,bethel,41.3712,-73.414,3.97,74,0,0.0,US,1675926397
285,nome,64.5011,-165.4064,-17.96,85,100,0.0,US,1675926321
286,roald,62.5833,6.1333,5.97,81,75,14.4,NO,1675926115
287,dekar,-21.5333,21.9333,22.1,74,100,2.26,BW,1675926398
288,port moresby,-9.4431,147.1797,29.68,66,40,7.72,PG,1675925998
289,kachiry,53.0675,76.1036,-18.36,95,88,1.51,KZ,1675926399
290,riviere-au-renard,48.9957,-64.3971,-8.84,82,100,9.48,CA,1675926400
291,crowley,30.2141,-92.3746,16.04,89,21,4.17,US,1675926400
292,juye,35.3947,116.0883,5.16,82,100,2.19,CN,1675926401
293,lisieux,49.1667,0.1667,0.73,81,100,1.37,FR,1675926401
294,sangar,63.9242,127.4739,-38.59,97,27,1.31,RU,1675926402
295,beloha,-25.1667,45.05,28.28,58,100,5.0,MG,1675926403
296,srednekolymsk,67.45,153.6833,-34.78,98,98,2.84,RU,1675926403
297,touros,-5.1989,-35.4608,25.44,83,28,4.32,BR,1675926403
298,comodoro rivadavia,-45.8667,-67.5,22.59,41,100,12.96,AR,1675926404
299,brae,60.3964,-1.353,4.42,63,100,15.3,GB,1675926404
300,georgetown,5.4112,100.3354,31.96,70,20,3.13,MY,1675926372
301,kokopo,-4.352,152.2633,28.65,67,90,4.12,PG,1675926405
302,miguel hidalgo,19.4225,-99.2028,15.24,55,75,0.45,MX,1675926406
303,port blair,11.6667,92.75,29.02,61,75,5.14,IN,1675926406
304,ambilobe,-13.2,49.05,29.35,66,80,1.98,MG,1675926407
305,macuspana,17.7667,-92.6,25.54,81,79,3.96,MX,1675926407
306,chenzhou,25.8,113.0333,10.02,96,100,1.58,CN,1675926408
307,auki,-8.7676,160.7034,27.81,79,100,2.3,SB,1675926408
308,salekhard,66.53,66.6019,-15.96,91,12,2.2,RU,1675926409
309,khatanga,71.9667,102.5,-41.46,99,57,1.75,RU,1675926409
310,garh maharaja,30.8339,71.9053,23.76,19,100,3.17,PK,1675926410
311,makakilo city,21.3469,-158.0858,23.18,62,94,11.8,US,1675926121
312,axim,4.8699,-2.2405,25.57,86,46,0.93,GH,1675926410
313,itaueira,-7.6033,-43.0256,20.45,44,8,1.7,BR,1675926411
314,narsaq,60.9167,-46.05,-8.88,86,100,4.06,GL,1675926411
315,xiaoweizhai,26.1903,107.5125,10.33,79,100,1.81,CN,1675926412
316,aras,42.5617,-2.356,-0.77,93,75,0.0,ES,1675926412
317,tiarei,-17.5333,-149.3333,27.01,71,3,2.56,PF,1675926413
318,broome,42.2506,-75.833,1.69,69,0,2.57,US,1675926413
319,leh,34.1667,77.5833,-7.5,62,100,1.0,IN,1675926414
320,saint-georges,12.0564,-61.7485,24.69,77,21,7.08,GD,1675926414
321,lunenburg,44.3835,-64.3155,0.03,60,65,6.88,CA,1675926415
322,mazagao,-0.115,-51.2894,25.03,99,100,1.16,BR,1675926415
323,la ligua,-32.4524,-71.2311,19.2,79,0,0.48,CL,1675926416
324,krutinka,56.0055,71.5113,-13.58,92,100,5.63,RU,1675926416
325,kirando,-7.4167,30.6,23.63,76,63,3.09,TZ,1675926416
326,garzon,2.1959,-75.6278,19.78,88,8,1.19,CO,1675926254
327,celestun,20.8667,-90.4,23.67,79,0,5.18,MX,1675926417
328,russell,32.3502,-85.1999,17.57,84,72,3.32,US,1675926418
329,vardo,70.3705,31.1107,0.99,80,75,9.26,NO,1675926418
330,provideniya,64.3833,-173.3,-27.88,96,75,1.32,RU,1675926418
331,mount isa,-20.7333,139.5,33.87,38,40,4.63,AU,1675926419
332,leningradskiy,69.3833,178.4167,-27.65,97,100,2.74,RU,1675926419
333,chase,50.8165,-119.6857,-2.18,96,100,1.61,CA,1675926420
334,khromtau,50.2503,58.4347,-13.27,92,100,8.05,KZ,1675926420
335,taiobeiras,-15.8078,-42.2331,15.6,87,21,1.55,BR,1675926421
336,san patricio,28.017,-97.5169,13.8,83,91,2.37,US,1675926421
337,malanje,-9.5402,16.341,20.61,74,36,1.04,AO,1675926422
338,rincon,32.296,-81.2354,16.59,88,0,0.0,US,1675926422
339,ewa beach,21.3156,-158.0072,23.97,58,0,11.18,US,1675926260
340,cedar city,37.6775,-113.0619,-1.46,74,40,6.17,US,1675926423
341,suntar,62.1444,117.6319,-29.06,92,94,1.46,RU,1675926423
342,batagay-alyta,67.8006,130.4114,-41.87,98,71,0.89,RU,1675926424
343,airai,-8.9266,125.4092,20.62,77,100,1.86,TL,1675926424
344,mugur-aksy,50.35,90.5,-10.87,79,100,2.3,RU,1675926425
345,lydenburg,-25.0978,30.4597,19.33,88,100,1.49,ZA,1675926425
346,mizan teferi,6.9833,35.5833,27.02,27,5,1.32,ET,1675926426
347,qom,34.6401,50.8764,8.03,29,25,8.13,IR,1675926427
348,quatre cocos,-20.2078,57.7625,28.38,72,32,6.43,MU,1675926427
349,yermolayevo,52.7167,55.8,-10.24,95,99,4.46,RU,1675926428
350,tukrah,32.5341,20.5791,11.43,67,44,18.22,LY,1675926428
351,bengkulu,-3.8004,102.2655,29.34,63,91,3.94,ID,1675926429
352,ardmore,34.1743,-97.1436,2.79,96,100,4.63,US,1675925758
353,riyadh,24.6877,46.7219,13.08,38,81,4.72,SA,1675926269
354,maloy,61.9353,5.1136,2.85,78,100,17.41,NO,1675926430
355,kostomuksha,64.571,30.5767,0.61,87,100,9.11,RU,1675926430
356,gore,-46.1028,168.9436,12.34,59,30,2.96,NZ,1675926430
357,bathsheba,13.2167,-59.5167,25.34,78,40,7.72,BB,1675926431
358,jalu,29.0331,21.5482,12.16,40,1,8.32,LY,1675926431
359,paamiut,61.994,-49.6678,-1.54,83,100,10.21,GL,1675926432
360,north bend,43.4065,-124.2243,7.14,95,0,3.6,US,1675926310
361,monrovia,6.3005,-10.7969,22.87,86,6,1.27,LR,1675926433
362,sao jose da coroa grande,-8.8978,-35.1478,25.0,83,100,1.64,BR,1675926434
363,skjervoy,70.0311,20.9714,0.0,92,100,2.18,NO,1675926434
364,evensk,61.95,159.2333,-24.6,73,89,5.89,RU,1675926435
365,saru dornei,47.2833,25.35,-8.66,65,0,0.83,RO,1675926435
366,kloulklubed,7.0419,134.2556,25.28,74,100,7.84,PW,1675926436
367,hami,42.8,93.45,5.63,32,69,0.71,CN,1675926436
368,iqaluit,63.7506,-68.5145,-34.15,68,0,8.75,CA,1675926437
369,chumikan,54.7183,135.315,-23.32,79,93,7.75,RU,1675926437
370,bekhtery,46.251,32.2927,-3.78,61,0,6.23,UA,1675926438
371,west wendover,40.7391,-114.0733,-1.44,55,0,4.63,US,1675926438
372,esil,51.9556,66.4042,-16.16,90,100,2.53,KZ,1675926439
373,quelimane,-17.8786,36.8883,30.68,63,46,1.15,MZ,1675926439
374,river falls,44.8614,-92.6238,-2.13,86,100,1.61,US,1675926440
375,bubaque,11.2833,-15.8333,23.49,67,4,4.73,GW,1675926441
376,cerrito,6.8432,-72.694,10.59,83,100,2.38,CO,1675926441
377,bejar,40.3864,-5.7634,1.99,87,0,2.55,ES,1675926386
378,kearney,40.6995,-99.0815,-0.69,83,0,6.69,US,1675926286
379,severomuysk,56.1481,113.4267,-16.32,90,89,1.23,RU,1675926443
380,north platte,41.1239,-100.7654,2.29,82,0,8.49,US,1675926443
381,college,64.8569,-147.8028,-17.73,81,75,0.0,US,1675926444
382,kiunga,-6.1219,141.2906,26.08,87,100,2.83,PG,1675926444
383,yerbogachen,61.2767,108.0108,-15.91,92,100,1.37,RU,1675926445
384,albury,-36.0833,146.9167,32.3,36,12,0.7,AU,1675926446
385,codrington,-38.2667,141.9667,20.41,63,0,4.91,AU,1675926446
386,treviglio,45.5238,9.5895,1.16,60,40,1.54,IT,1675926447
387,filadelfia,39.9523,-75.1638,6.01,80,40,1.54,US,1675926405
388,xining,36.6167,101.7667,2.45,21,0,1.76,CN,1675926448
389,taoudenni,22.6783,-3.9836,17.93,21,99,6.35,ML,1675926448
390,kysyl-syr,63.8986,122.7617,-37.23,97,76,1.76,RU,1675926449
391,port-cartier,50.0334,-66.8654,-14.58,83,3,4.7,CA,1675926449
392,antofagasta,-23.65,-70.4,19.6,85,92,1.16,CL,1675926363
393,yumen,40.2833,97.2,3.91,31,30,4.08,CN,1675926450
394,pangody,65.85,74.4859,-14.84,94,42,4.84,RU,1675926451
395,beyla,8.6833,-8.6333,22.35,76,54,1.13,GN,1675926451
396,ulaanbaatar,47.9077,106.8832,-10.93,62,75,1.0,MN,1675925945
397,coihaique,-45.5752,-72.0662,16.34,88,75,3.09,CL,1675926452
398,sisimiut,66.9395,-53.6735,-16.28,85,100,4.39,GL,1675926453
399,wajid,3.8093,43.2471,30.96,33,9,8.71,SO,1675926454
400,dingle,10.9995,122.6711,28.3,70,39,6.73,PH,1675926454
401,severodvinsk,64.5635,39.8302,-0.94,86,100,7.98,RU,1675926454
402,lake havasu city,34.4839,-114.3224,15.61,36,0,0.89,US,1675926455
403,susanville,40.4163,-120.653,-0.09,85,0,1.54,US,1675926436
404,campos sales,-7.0744,-40.3761,20.15,43,100,3.03,BR,1675926456
405,loikaw,19.6742,97.2094,29.72,12,26,2.56,MM,1675926456
406,hasaki,35.7333,140.8333,9.22,39,7,7.36,JP,1675926457
407,cayenne,4.9333,-52.3333,25.02,94,100,2.57,GF,1675926457
408,makinsk,52.6292,70.4169,-15.51,91,100,2.35,KZ,1675926458
409,honiara,-9.4333,159.95,27.7,82,66,2.36,SB,1675926458
410,bogo,11.0517,124.0055,28.32,70,25,4.89,PH,1675926459
411,calabozo,8.9242,-67.4293,25.9,62,84,3.79,VE,1675926459
412,awbari,26.5921,12.7805,10.27,58,100,6.92,LY,1675926460
413,vila franca do campo,37.7167,-25.4333,13.23,74,90,3.9,PT,1675926460
414,point pleasant,40.0832,-74.0682,3.86,89,74,1.64,US,1675926461
415,san ramon,37.7799,-121.978,12.24,79,0,1.54,US,1675926461
416,adeje,28.1227,-16.726,15.56,73,75,2.06,ES,1675926462
417,excelsior springs,39.3392,-94.2261,2.43,99,100,3.6,US,1675926198
418,koslan,63.4564,48.8989,-4.35,88,100,5.07,RU,1675926463
419,shingu,33.7333,135.9833,10.23,45,17,1.99,JP,1675926463
420,viking,53.1001,-111.7684,-9.42,89,10,3.63,CA,1675926464
421,burshtyn,49.2587,24.6278,-11.38,96,65,1.69,UA,1675926464
422,strezhevoy,60.7333,77.5889,-13.68,92,100,4.74,RU,1675926465
423,bone,51.9669,12.1396,-4.3,80,14,3.59,DE,1675926465
424,sulangan,11.1373,123.7228,27.04,78,100,4.32,PH,1675926465
425,inhambane,-23.865,35.3833,28.82,72,100,3.45,MZ,1675926466
426,nioro,13.35,-15.75,22.22,20,1,2.62,GM,1675926467
427,boende,-0.2167,20.8667,27.31,60,90,1.68,CD,1675926467
428,oparino,59.8518,48.2783,-5.13,96,36,3.7,RU,1675926468
429,churapcha,62.0025,132.4325,-36.46,97,84,1.68,RU,1675926468
430,tres coracoes,-21.6969,-45.2533,16.54,95,0,1.29,BR,1675926468
431,te anau,-45.4167,167.7167,13.89,50,25,1.58,NZ,1675926469
432,varena,54.2167,24.5667,-3.57,90,89,3.06,LT,1675926469
433,sembe,1.6481,14.5806,25.05,48,44,1.52,CG,1675926470
434,praia,14.9215,-23.5087,19.64,80,22,3.99,CV,1675926470
435,namibe,-15.1961,12.1522,22.2,67,56,2.54,AO,1675926471
436,alice springs,-23.7,133.8833,36.75,16,0,8.23,AU,1675926471
437,abalak,58.1286,68.5944,-9.82,91,99,3.32,RU,1675926472
438,oyem,1.5995,11.5793,22.42,84,96,1.4,GA,1675926472
439,marawi,7.9986,124.2928,22.43,92,100,2.18,PH,1675926473
440,ostrovnoy,68.0531,39.5131,1.25,83,100,17.36,RU,1675926473
441,carmo do paranaiba,-19.0008,-46.3161,17.08,94,98,0.93,BR,1675926474
442,honningsvag,70.9821,25.9704,0.86,75,20,4.63,NO,1675926474
443,okhotsk,59.3833,143.3,-26.88,86,14,4.63,RU,1675926474
444,qostanay,53.1667,63.5833,-11.84,85,40,4.0,KZ,1675926475
445,polovinnoye,54.7914,65.9864,-10.21,91,100,3.6,RU,1675926475
446,anloga,5.7947,0.8973,26.67,82,100,3.03,GH,1675926476
447,severo-yeniseyskiy,60.3725,93.0408,-17.6,90,100,2.01,RU,1675926476
448,hambantota,6.1241,81.1185,31.19,62,20,4.12,LK,1675926477
449,cody,44.5263,-109.0565,-3.88,54,0,4.63,US,1675926477
450,port hardy,50.6996,-127.4199,5.1,87,100,12.35,CA,1675926478
451,kizukuri,40.8061,140.3861,-2.25,62,100,7.98,JP,1675926478
452,pisco,-13.7,-76.2167,22.03,83,0,4.63,PE,1675926478
453,contamana,-7.3333,-75.0167,21.77,96,62,1.08,PE,1675926479
454,flinders,-34.5833,150.8552,23.43,84,100,4.02,AU,1675926479
455,whitefish,48.4111,-114.3376,-3.14,74,100,1.54,US,1675926323
456,lasa,46.6166,10.7002,-5.91,58,22,0.95,IT,1675926480
457,komsomolskiy,40.4272,71.7189,5.4,75,75,2.06,UZ,1675926480
458,adre,13.4667,22.2,18.43,13,13,7.54,TD,1675926481
459,cam ranh,11.9214,109.1591,28.98,70,20,5.66,VN,1675926481
460,nenjiang,49.1833,125.2167,-12.45,90,100,3.78,CN,1675926466
461,lata,40.1629,-8.3327,7.26,84,0,2.59,PT,1675926482
462,limin khersonisou,35.3162,25.3928,8.35,66,75,5.14,GR,1675926483
463,linhares,-19.3911,-40.0722,22.17,97,98,0.51,BR,1675926312
464,brooks,50.5834,-111.8851,-6.09,89,6,3.43,CA,1675926484
465,svetlogorsk,52.6333,29.7333,-5.9,91,99,2.4,BY,1675926485
466,souillac,-20.5167,57.5167,27.46,71,36,6.37,MU,1675926485
467,aykhal,66.0,111.5,-29.39,98,99,2.81,RU,1675926486
468,radhanpur,23.8333,71.6,29.61,19,4,2.71,IN,1675926486
469,uige,-7.6087,15.0613,22.12,77,48,0.64,AO,1675926487
470,yuancheng,36.652,107.7896,1.19,69,5,2.92,CN,1675926487
471,nichinan,31.6,131.3667,12.49,64,84,5.46,JP,1675926488
472,alamos,27.0167,-108.9333,13.89,12,0,1.31,MX,1675926488
473,belyy yar,53.6039,91.3903,-11.06,83,40,0.0,RU,1675926489
474,estacion coahuila,32.1939,-115.0017,15.26,25,0,3.2,MX,1675926490
475,cortez,37.3489,-108.5859,-0.17,58,20,5.66,US,1675926490
476,buala,-8.145,159.5921,27.44,82,100,2.64,SB,1675926491
477,yarmouth,41.7057,-70.2286,6.03,68,0,3.58,US,1675926492
478,dakar,14.6937,-17.4441,21.49,70,93,6.95,SN,1675926493
479,aborlan,9.4352,118.5492,30.04,67,100,5.39,PH,1675926493
480,westport,41.1415,-73.3579,4.75,71,64,0.45,US,1675926023
481,bichena,10.45,38.2,16.47,30,6,2.9,ET,1675926494
482,necochea,-38.5473,-58.7368,15.97,89,6,2.2,AR,1675926494
483,araouane,18.9048,-3.5265,18.34,22,11,4.78,ML,1675926495
484,graham,47.0529,-122.2943,6.01,89,100,1.54,US,1675926496
485,pokhara,28.2333,83.9833,21.5,39,31,3.63,NP,1675926363
486,hobyo,5.3505,48.5268,27.34,67,29,8.14,SO,1675926496
487,dalvik,65.9702,-18.5286,-5.36,85,100,3.16,IS,1675926497
488,jiwani,25.05,61.7417,23.51,75,0,2.5,PK,1675926498
489,bosaso,11.2842,49.1816,26.55,64,21,2.93,SO,1675926498
490,parfino,57.9731,31.6481,-1.58,93,100,4.16,RU,1675926499
491,nanortalik,60.1432,-45.2371,-2.71,82,100,4.06,GL,1675926499
492,iralaya,15.0,-83.2333,24.47,85,0,6.07,HN,1675926500
493,kisesa,-3.0833,34.15,20.1,79,100,2.75,TZ,1675926501
494,nelson bay,-32.7167,152.15,25.61,83,100,5.36,AU,1675926501
495,houston,29.7633,-95.3633,9.38,88,20,4.12,US,1675926177
496,morwa,22.9,73.8333,30.89,12,1,1.72,IN,1675926502
497,kissidougou,9.1848,-10.0999,21.78,84,63,1.5,GN,1675926503
498,george,-33.963,22.4617,20.56,68,0,1.07,ZA,1675926504
499,ak-dovurak,51.1833,90.6,-15.99,89,100,0.74,RU,1675926504
500,susner,23.95,76.0833,27.67,16,3,2.0,IN,1675926505
501,janauba,-15.8025,-43.3089,19.83,70,46,1.37,BR,1675926505
502,yazoo city,32.8551,-90.4056,14.39,84,100,6.88,US,1675926178
503,waipawa,-41.4122,175.5153,14.12,67,100,3.66,NZ,1675926208
504,dzhebariki-khaya,62.2167,135.8,-39.0,99,76,0.53,RU,1675926506
505,nemuro,43.3236,145.575,-7.18,63,76,8.57,JP,1675926507
506,salalah,17.0151,54.0924,27.05,65,0,3.6,OM,1675926508
507,mica,46.3667,24.4167,-11.03,85,20,2.57,RO,1675926509
508,benjamin constant,-4.3831,-70.0311,23.07,100,97,0.09,BR,1675926325
509,bismarck,46.8083,-100.7837,0.91,87,100,7.2,US,1675926216
510,praia da vitoria,38.7333,-27.0667,12.64,75,86,5.12,PT,1675926510
511,providencia,28.7167,-111.5833,13.6,58,41,5.79,MX,1675926510
512,huarmey,-10.0681,-78.1522,22.12,86,15,2.43,PE,1675926511
513,san cristobal,7.7669,-72.225,19.25,76,83,0.28,VE,1675926511
514,choix,26.7092,-108.3219,13.51,17,0,2.25,MX,1675926512
515,bogale,16.2833,95.4,33.2,15,22,2.22,MM,1675926512
516,carutapera,-1.195,-46.02,24.14,91,84,1.59,BR,1675926513
517,mingshui,36.7167,117.5,8.04,47,99,3.26,CN,1675926513
518,sinnar,13.5691,33.5672,23.81,38,85,6.69,SD,1675926514
519,asau,46.4333,26.4,-14.29,70,1,1.11,RO,1675926514
520,loiza,18.4313,-65.8802,25.04,83,75,6.17,PR,1675926515
521,deputatskiy,69.3,139.9,-41.46,98,99,1.82,RU,1675926515
522,gelemso,8.8167,40.5167,20.28,44,5,3.92,ET,1675926516
523,jacareacanga,-6.2222,-57.7528,21.83,99,99,0.56,BR,1675926516
524,gogrial,8.5332,28.1004,25.62,10,37,3.81,SS,1675926517
525,kashi,39.4547,75.9797,1.86,42,99,0.69,CN,1675926517
526,gari,59.4307,62.3497,-3.28,82,100,4.8,RU,1675926518
527,selaphum,16.0299,103.9383,37.83,32,47,1.88,TH,1675926518
528,coihueco,-36.6167,-71.8333,15.79,45,0,1.57,CL,1675926519
529,fort nelson,58.8053,-122.7002,-13.92,92,100,0.96,CA,1675926519
530,vanimo,-2.6741,141.3028,26.52,90,100,6.27,PG,1675926520
531,cabo rojo,18.0866,-67.1457,24.18,65,1,3.56,PR,1675926342
532,umm lajj,25.0213,37.2685,20.7,29,100,7.11,SA,1675926520
533,thurso,58.5927,-3.5259,5.48,76,99,14.74,GB,1675926521
534,straja,47.9167,25.55,-11.01,73,1,1.84,RO,1675926522
535,kaniama,-7.5667,24.1833,21.24,85,97,0.4,CD,1675926523
536,najran,17.4924,44.1277,22.3,20,6,3.04,SA,1675926523
537,katunino,64.3862,40.6298,-1.06,87,100,6.74,RU,1675926524
538,petropavlovsk-kamchatskiy,53.0452,158.6483,-10.67,52,20,2.0,RU,1675926373
539,malkangiri,18.35,81.9,34.95,13,10,1.33,IN,1675926524
540,mitsamiouli,-11.3847,43.2844,27.7,77,93,4.53,KM,1675926525
541,panacan,9.2463,118.4082,28.24,69,100,5.83,PH,1675926525
542,tubmanburg,6.8708,-10.8172,22.64,96,15,0.55,LR,1675926526
543,manjeshwar,12.7194,74.8861,31.53,57,81,3.85,IN,1675926526
544,atbasar,51.8,68.3333,-18.57,95,100,1.5,KZ,1675926527
545,majene,-3.5403,118.9707,30.22,64,91,5.27,ID,1675926527
546,havoysund,70.9963,24.6622,1.13,52,100,9.36,NO,1675926528
